[
  {"name":"西湖","city":"杭州市","county":"西湖区","lat":30.2435,"lng":120.143,"desc":"中国十大风景名胜之一，三面云山一面城，以'西湖十景'闻名天下。春有苏堤春晓，夏有曲院风荷，秋有平湖秋月，冬有断桥残雪，四季皆有不同韵致。","tags":["湖泊","世界遗产","5A景区"],"image":"https://picsum.photos/seed/westlake/400/250"},
  {"name":"灵隐寺","city":"杭州市","county":"西湖区","lat":30.245,"lng":120.1,"desc":"中国佛教禅宗十大古刹之一，始建于东晋咸和元年，距今约1700年历史。寺内飞来峰石窟造像是江南地区少见的古代石刻艺术瑰宝。","tags":["寺庙","古刹","佛教"],"image":"https://picsum.photos/seed/lingyin/400/250"},
  {"name":"千岛湖","city":"杭州市","county":"淳安县","lat":29.61,"lng":119.04,"desc":"因建造新安江水电站而形成的人工湖，湖中有1078座大小岛屿，湖水清澈如碧，被誉为'天下第一秀水'。可乘船游湖、登岛观光。","tags":["湖泊","岛屿","5A景区"],"image":"https://picsum.photos/seed/qiandaohu/400/250"},
  {"name":"西溪湿地","city":"杭州市","county":"西湖区","lat":30.27,"lng":120.07,"desc":"中国第一个国家级湿地公园，集城市湿地、农耕湿地、文化湿地于一体。乘摇橹船穿行芦苇荡，感受'西溪且留下'的诗意。","tags":["湿地","生态","5A景区"],"image":"https://picsum.photos/seed/xixi/400/250"},
  {"name":"钱塘江大桥","city":"杭州市","county":"滨江区","lat":30.21,"lng":120.14,"desc":"中国自行设计建造的第一座双层铁路公路两用桥，由茅以升设计，1937年建成。每年农历八月十八可观钱塘江大潮。","tags":["桥梁","历史建筑","地标"],"image":"https://picsum.photos/seed/qiantang/400/250"},

  {"name":"天一阁","city":"宁波市","county":"海曙区","lat":29.87,"lng":121.54,"desc":"中国现存最早的私家藏书楼，建于明嘉靖四十年，距今450余年。藏书曾达七万余卷，被誉为'南国书城'，是中华文脉传承的象征。","tags":["历史建筑","藏书楼","文保单位"],"image":"https://picsum.photos/seed/tianyige/400/250"},
  {"name":"东钱湖","city":"宁波市","county":"鄞州区","lat":29.78,"lng":121.63,"desc":"浙江省最大的天然淡水湖，面积约20平方公里，环湖有陶公钓矶、小普陀等十景。适合骑行、徒步、品湖鲜。","tags":["湖泊","休闲","自然风光"],"image":"https://picsum.photos/seed/dongqianhu/400/250"},
  {"name":"奉化溪口","city":"宁波市","county":"奉化区","lat":29.68,"lng":121.28,"desc":"蒋介石故里，雪窦山风景区所在地。有千丈岩瀑布、妙高台、雪窦寺等名胜，集自然风光与历史人文于一体。","tags":["名人故里","山水","5A景区"],"image":"https://picsum.photos/seed/xikou/400/250"},
  {"name":"象山影视城","city":"宁波市","county":"象山县","lat":29.37,"lng":121.86,"desc":"中国十大影视基地之一，《琅琊榜》《长安十二时辰》等热播剧取景地。游客可参观影视拍摄场景，体验古装穿越之旅。","tags":["影视基地","娱乐","体验"],"image":"https://picsum.photos/seed/xiangshan/400/250"},

  {"name":"雁荡山","city":"温州市","county":"乐清市","lat":28.36,"lng":121.06,"desc":"中国十大名山之一，以奇峰怪石、飞瀑流泉著称。灵峰夜景、灵岩飞渡、大龙湫瀑布并称'雁荡三绝'，素有'东南第一山'之誉。","tags":["名山","瀑布","世界地质公园"],"image":"https://picsum.photos/seed/yandang/400/250"},
  {"name":"楠溪江","city":"温州市","county":"永嘉县","lat":28.15,"lng":120.7,"desc":"以水秀、岩奇、瀑多、村古、滩林美而闻名。沿江散落着200多座古村落，乘竹筏漂流可领略'人在画中游'的意境。","tags":["河流","古村","漂流"],"image":"https://picsum.photos/seed/nanxi/400/250"},
  {"name":"江心屿","city":"温州市","county":"鹿城区","lat":28.03,"lng":120.65,"desc":"瓯江之中的一座岛屿，中国四大名屿之一。岛上有东西双塔、江心寺等古迹，历代文人墨客题咏甚多，有'瓯江蓬莱'之称。","tags":["岛屿","古迹","园林"],"image":"https://picsum.photos/seed/jiangxin/400/250"},

  {"name":"乌镇","city":"嘉兴市","county":"桐乡市","lat":30.75,"lng":120.49,"desc":"江南六大古镇之一，具有六千余年悠久历史。小桥流水人家的典型江南水乡风貌，每年世界互联网大会在此举办，古今交融。","tags":["古镇","水乡","5A景区"],"image":"https://picsum.photos/seed/wuzhen/400/250"},
  {"name":"西塘","city":"嘉兴市","county":"嘉善县","lat":30.94,"lng":120.89,"desc":"活着的千年古镇，以'桥多、弄多、廊棚多'著称。晚上灯笼亮起，沿河廊棚下漫步，是体验江南水乡夜色的绝佳之地。","tags":["古镇","水乡","夜景"],"image":"https://picsum.photos/seed/xitang/400/250"},
  {"name":"南湖","city":"嘉兴市","county":"南湖区","lat":30.76,"lng":120.76,"desc":"中国共产党诞生地之一，湖心岛上有烟雨楼和南湖红船。湖光山色秀美，与杭州西湖、绍兴东湖并称浙江三大名湖。","tags":["湖泊","红色旅游","历史"],"image":"https://picsum.photos/seed/nanhu/400/250"},

  {"name":"莫干山","city":"湖州市","county":"德清县","lat":30.64,"lng":119.88,"desc":"中国四大避暑胜地之一，以竹、泉、云和清、绿、凉、静著称。山上散落着近200座民国老别墅，被誉为'世界近代建筑博物馆'。","tags":["名山","避暑","民宿"],"image":"https://picsum.photos/seed/moganshan/400/250"},
  {"name":"南浔古镇","city":"湖州市","county":"南浔区","lat":30.87,"lng":120.43,"desc":"江南六大古镇之一，以中西合璧的建筑风格独树一帜。百间楼、小莲庄、嘉业堂藏书楼等古迹展现了古镇昔日的富庶与文化底蕴。","tags":["古镇","建筑","5A景区"],"image":"https://picsum.photos/seed/nanxun/400/250"},
  {"name":"安吉竹海","city":"湖州市","county":"安吉县","lat":30.64,"lng":119.54,"desc":"《卧虎藏龙》取景地，漫山遍野的翠竹层层叠叠如绿色海洋。可漫步竹林小径，也可登上观竹楼俯瞰万亩竹海的壮阔。","tags":["竹海","影视取景","生态"],"image":"https://picsum.photos/seed/anji/400/250"},

  {"name":"鲁迅故里","city":"绍兴市","county":"越城区","lat":30.0,"lng":120.59,"desc":"中国现代文学巨匠鲁迅先生出生和成长的故土。从百草园到三味书屋，走在青石板路上，仿佛能触摸到那个时代的温度。","tags":["名人故里","文学","历史街区"],"image":"https://picsum.photos/seed/luxun/400/250"},
  {"name":"沈园","city":"绍兴市","county":"越城区","lat":29.99,"lng":120.59,"desc":"南宋诗人陆游与唐婉的爱情故事发生地。园内钗头凤碑记述着那段刻骨铭心的千古绝唱，是江南园林中最富情感的一座。","tags":["园林","爱情","诗词"],"image":"https://picsum.photos/seed/shenyuan/400/250"},
  {"name":"兰亭","city":"绍兴市","county":"柯桥区","lat":29.93,"lng":120.5,"desc":"书圣王羲之写下《兰亭集序》的地方。鹅池、流觞亭、御碑亭等景点承载了中国书法史上最辉煌的一页，被誉为'书法圣地'。","tags":["书法","古迹","园林"],"image":"https://picsum.photos/seed/lanting/400/250"},
  {"name":"柯岩","city":"绍兴市","county":"柯桥区","lat":30.05,"lng":120.49,"desc":"以古采石遗迹为核心的国家4A级景区，奇石'云骨'高30余米，巍峨壮观。可乘乌篷船穿梭于鉴湖之上，感受绍兴独特的水乡魅力。","tags":["奇石","水乡","4A景区"],"image":"https://picsum.photos/seed/keyan/400/250"},

  {"name":"横店影视城","city":"金华市","county":"东阳市","lat":29.18,"lng":120.32,"desc":"全球规模最大的影视拍摄基地，被誉为'中国好莱坞'。包含秦王宫、清明上河图、明清宫苑等十多个影视拍摄景区，可偶遇剧组拍摄。","tags":["影视基地","娱乐","5A景区"],"image":"https://picsum.photos/seed/hengdian/400/250"},
  {"name":"双龙洞","city":"金华市","county":"婺城区","lat":29.19,"lng":119.65,"desc":"国家级风景名胜区，以地下悬河、岩溶奇观闻名。需卧船入洞，洞内钟乳石千姿百态，冰壶洞内更有全国最大的洞内瀑布。","tags":["溶洞","瀑布","地质奇观"],"image":"https://picsum.photos/seed/shuanglong/400/250"},
  {"name":"义乌国际商贸城","city":"金华市","county":"义乌市","lat":29.34,"lng":120.11,"desc":"全球最大的小商品集散中心，面积超过400万平方米。虽然不算传统景点，但'买全球卖全球'的商业奇观本身就是一个独特的旅游体验。","tags":["购物","商业","特色体验"],"image":"https://picsum.photos/seed/yiwu/400/250"},

  {"name":"江郎山","city":"衢州市","county":"江山市","lat":28.53,"lng":118.57,"desc":"世界自然遗产，以三爿石闻名——三座巨岩拔地而起，高360余米，如天柱耸立。'雄奇冠天下，秀丽甲东南'，是丹霞地貌的杰出代表。","tags":["名山","丹霞","世界遗产"],"image":"https://picsum.photos/seed/jianglang/400/250"},
  {"name":"廿八都古镇","city":"衢州市","county":"江山市","lat":28.32,"lng":118.46,"desc":"地处浙闽赣三省交界处的千年古镇，因地理位置独特，形成了'一镇九方言'的奇特文化现象。古镇保存完好，青砖黛瓦，古朴宁静。","tags":["古镇","文化","边界"],"image":"https://picsum.photos/seed/nianbadu/400/250"},
  {"name":"龙游石窟","city":"衢州市","county":"龙游县","lat":29.04,"lng":119.19,"desc":"被誉为'世界第九大奇迹'的地下石窟群，开凿年代和用途至今成谜。洞窟规模宏大、凿痕精美，是中国古代工程史的一个未解之谜。","tags":["石窟","历史之谜","奇观"],"image":"https://picsum.photos/seed/longyou/400/250"},

  {"name":"普陀山","city":"舟山市","county":"普陀区","lat":29.99,"lng":122.39,"desc":"中国四大佛教名山之一，观音菩萨的道场。海天佛国，梵音缭绕，普济寺、法雨寺、慧济寺三大寺香火鼎盛，是心灵朝圣之地。","tags":["佛教","海岛","5A景区"],"image":"https://picsum.photos/seed/putuoshan/400/250"},
  {"name":"嵊泗列岛","city":"舟山市","county":"嵊泗县","lat":30.73,"lng":122.46,"desc":"中国唯一的国家级列岛风景名胜区，由404个岛屿组成。碧海金沙，渔家风情浓郁，是远离尘嚣、看日出日落的好去处。","tags":["海岛","沙滩","渔家"],"image":"https://picsum.photos/seed/shengsi/400/250"},
  {"name":"朱家尖","city":"舟山市","county":"普陀区","lat":29.91,"lng":122.4,"desc":"舟山群岛中的第五大岛，以沙滩闻名。'十里金沙'由五片沙滩连绵而成，沙质细腻，是华东地区难得的优质海滨浴场。","tags":["海岛","沙滩","度假"],"image":"https://picsum.photos/seed/zhujiajian/400/250"},

  {"name":"天台山","city":"台州市","county":"天台县","lat":29.18,"lng":121.03,"desc":"佛教天台宗和道教南宗的发源地。国清寺是佛教天台宗的祖庭，石梁飞瀑为天下奇观。自然风光与宗教文化在此完美融合。","tags":["名山","宗教","瀑布"],"image":"https://picsum.photos/seed/tiantaishan/400/250"},
  {"name":"神仙居","city":"台州市","county":"仙居县","lat":28.67,"lng":120.72,"desc":"以独特的火山流纹岩地貌著称，奇峰、云海、飞瀑、幽谷浑然一体。近年修建的高空栈道和如意桥，让游客在云端之上的绝美风光中漫步。","tags":["名山","地质","5A景区"],"image":"https://picsum.photos/seed/shenxianju/400/250"},
  {"name":"临海古城","city":"台州市","county":"临海市","lat":28.84,"lng":121.12,"desc":"拥有1600多年历史的国家历史文化名城。台州府城墙被誉为'江南长城'，紫阳古街保留了宋代里坊格局，烟火气与古韵共存。","tags":["古城","长城","历史街区"],"image":"https://picsum.photos/seed/linhai/400/250"},

  {"name":"仙都","city":"丽水市","county":"缙云县","lat":28.65,"lng":120.1,"desc":"以鼎湖峰为标志的山水画卷，九曲练溪十里画廊。鼎湖峰状如春笋直插云霄，下有黄帝祠宇，是轩辕黄帝的三大祭祀地之一。","tags":["山水","道教","5A景区"],"image":"https://picsum.photos/seed/xiandu/400/250"},
  {"name":"云和梯田","city":"丽水市","county":"云和县","lat":28.11,"lng":119.57,"desc":"华东地区最大的梯田群，被誉为'中国最美梯田'之一。四季皆景——春水盈盈如镜，夏绿层层叠翠，秋金稻浪翻滚，冬雪银装素裹。","tags":["梯田","摄影","农耕"],"image":"https://picsum.photos/seed/yunhe/400/250"},
  {"name":"古堰画乡","city":"丽水市","county":"莲都区","lat":28.45,"lng":119.77,"desc":"由千年古堰——通济堰和瓯江畔的画乡村两部分组成。古樟林立，江水如碧，是无数画家和摄影师的创作天堂，丽水巴比松画派的发源地。","tags":["古村","艺术","摄影"],"image":"https://picsum.photos/seed/guyan/400/250"}
]
